[{"name":"Africa","region":null,"location":[2.25,20.49166667]},{"name":"Eastern Africa","region":"Africa","location":[-3.0749999999999993,43.775]},{"name":"Middle Africa","region":"Africa","location":[1.25,18.5]},{"name":"Southern Africa","region":"Africa","location":[-24.75,24.25]},{"name":"Northern Africa","region":"Africa","location":[24.5,8.5]},{"name":"Western Africa","region":"Africa","location":[2.0250000000000004,3.2375666699999996]},{"name":"Asia","region":null,"location":[19.593133334999997,86.5]},{"name":"Central Asia","region":"Asia","location":[43.5098,67.5]},{"name":"Eastern Asia","region":"Asia","location":[34.08333333,121.5]},{"name":"South-Eastern Asia","region":"Asia","location":[6.583333335,111.95833333]},{"name":"Southern Asia","region":"Asia","location":[18.125,71.75]},{"name":"Western Asia","region":"Asia","location":[28.5,46.0]},{"name":"Europe","region":null,"location":[50.0,41.0]},{"name":"Southern Europe","region":"Europe","location":[39.38333333,12.5]},{"name":"Eastern Europe","region":"Europe","location":[53.5,64.0]},{"name":"Southeast Europe","region":"Europe","location":[43.5,20.25]},{"name":"Central Europe","region":"Europe","location":[49.058333329999996,16.666666665]},{"name":"Northern Europe","region":"Europe","location":[57.125,4.0]},{"name":"Western Europe","region":"Europe","location":[48.116666665,5.766666665]},{"name":"Americas","region":null,"location":[10.125,-10.372700000000002]},{"name":"Caribbean","region":"Americas","location":[17.86305,0.6272999999999982]},{"name":"Central America","region":"Americas","location":[13.125,-85.125]},{"name":"North America","region":"Americas","location":[47.5,-71.0]},{"name":"South America","region":"Americas","location":[-21.875,-65.25]},{"name":"Oceania","region":null,"location":[-11.6433,0.9325000000000045]},{"name":"Australia and New Zealand","region":"Oceania","location":[-34.0,153.5]},{"name":"Melanesia","region":"Oceania","location":[-1.8933,162.5325]},{"name":"Micronesia","region":"Oceania","location":[7.333333335,153.75]},{"name":"Polynesia","region":"Oceania","location":[-1.7768166650000001,0.9000000000000057]}]